{
  "timestamp": "20250914-214633",
  "generated_at": "2025-09-14 21:46:33",
  "route_plan": [
    {
      "id": "depot",
      "name": "My Home Base",
      "address": "5300 S 300 W, Murray, UT",
      "coordinates": "40.6542, -111.8955",
      "is_depot": true,
      "inspection_time": 0,
      "status": [],
      "travel_time": 8,
      "arrival_time": "08:08",
      "distance": 3.7322248792206136,
      "total_time": 600,
      "stops_count": 12,
      "total_pumps": 18
    },
    {
      "id": "37737",
      "name": "PHILLIPS 66 - SUNBURST",
      "address": "1326 E 5600 S",
      "city": "SALT LAKE CITY",
      "state": "UT",
      "zip": 84117.0,
      "county": "Salt Lake",
      "full_address": "1326 E 5600 S, SALT LAKE CITY, UT, 84117.0",
      "coordinates": "40.7050864, -111.8714165",
      "is_depot": false,
      "inspection_time": 30,
      "num_pumps": 2,
      "pumps_to_inspect": 1,
      "priority_score": 41.3,
      "reinspection": true,
      "complaint": true,
      "out_of_service": true,
      "priority_reason": "Customer complaint",
      "last_visited": "2024-12-09",
      "days_since_inspection": 279,
      "out_of_service_pumps": 1,
      "out_of_service_details": "P#4 all grades OOS",
      "days_out_of_service": 1173,
      "travel_time": 17,
      "arrival_time": "08:47",
      "distance": 4.510046336968542
    },
    {
      "id": "57942",
      "name": "MAIN STREET MARKET #978",
      "address": "1881 W CALIFORNIA",
      "city": "SALT LAKE CITY",
      "state": "UT",
      "zip": 84106.0,
      "county": "Salt Lake",
      "full_address": "1881 W CALIFORNIA, SALT LAKE CITY, UT, 84106.0",
      "coordinates": "40.7399279, -111.9441021",
      "is_depot": false,
      "inspection_time": 30,
      "num_pumps": 2,
      "pumps_to_inspect": 2,
      "priority_score": 43.53333333333333,
      "reinspection": true,
      "complaint": true,
      "out_of_service": true,
      "priority_reason": "Customer complaint",
      "last_visited": "2024-12-02",
      "days_since_inspection": 286,
      "out_of_service_pumps": 2,
      "out_of_service_details": "P#3 (D), P#8 OOS",
      "days_out_of_service": 1145,
      "travel_time": 58,
      "arrival_time": "09:28",
      "distance": 5.289365621409963
    },
    {
      "id": "12232662",
      "name": "7-ELEVEN STORE #38851A",
      "address": "5696 W 3500 S",
      "city": "WEST VALLEY CITY",
      "state": "UT",
      "zip": 84128.0,
      "county": "Salt Lake",
      "full_address": "5696 W 3500 S, WEST VALLEY CITY, UT, 84128.0",
      "coordinates": "40.6969343, -112.0275115",
      "is_depot": false,
      "inspection_time": 30,
      "num_pumps": 2,
      "pumps_to_inspect": 1,
      "priority_score": 33.93333333333334,
      "reinspection": true,
      "complaint": false,
      "out_of_service": true,
      "priority_reason": "Scheduled reinspection: Meet w/ Chase Peterson.   Devices entered in WinWam",
      "last_visited": "2024-11-20",
      "days_since_inspection": 298,
      "out_of_service_pumps": 1,
      "out_of_service_details": "P# 3 (85 & 91) out of service, software issue",
      "days_out_of_service": 1212,
      "travel_time": 125,
      "arrival_time": "10:35",
      "distance": 17.1994200887385
    },
    {
      "id": "126571",
      "name": "WALMART FUEL",
      "address": "1251 N MAIN ST",
      "city": "TOOELE",
      "state": "UT",
      "zip": 84074.0,
      "county": "Tooele",
      "full_address": "1251 N MAIN ST, TOOELE, UT, 84074.0",
      "coordinates": "40.5560774, -112.2974208",
      "is_depot": false,
      "inspection_time": 30,
      "num_pumps": 2,
      "pumps_to_inspect": 1,
      "priority_score": 40.43333333333334,
      "reinspection": true,
      "complaint": true,
      "out_of_service": true,
      "priority_reason": "Customer complaint",
      "last_visited": "2024-11-04",
      "days_since_inspection": 314,
      "out_of_service_pumps": 1,
      "out_of_service_details": "P#3 (85 & 91) OOS",
      "days_out_of_service": 313,
      "travel_time": 155,
      "arrival_time": "11:05",
      "distance": 0.38406496906058984
    },
    {
      "id": "57992",
      "name": "7-11 #36342 A",
      "address": "975 N MAIN ST",
      "city": "TOOELE",
      "state": "UT",
      "zip": 84074.0,
      "county": "Tooele",
      "full_address": "975 N MAIN ST, TOOELE, UT, 84074.0",
      "coordinates": "40.550552, -112.298302",
      "is_depot": false,
      "inspection_time": 30,
      "num_pumps": 2,
      "pumps_to_inspect": 2,
      "priority_score": 36,
      "reinspection": true,
      "complaint": false,
      "out_of_service": true,
      "priority_reason": "Scheduled reinspection: P#7 gas nozzle auto-shutoff failure",
      "last_visited": "2024-11-04",
      "days_since_inspection": 314,
      "out_of_service_pumps": 2,
      "out_of_service_details": "P#3 & #4 OOS",
      "days_out_of_service": 1067,
      "travel_time": 218,
      "arrival_time": "12:08",
      "distance": 15.438978175097752
    },
    {
      "id": "78787",
      "name": "MAVERIK #352",
      "address": "4604 W 12600 S",
      "city": "HERRIMAN",
      "state": "UT",
      "zip": 84067.0,
      "county": "Salt Lake",
      "full_address": "4604 W 12600 S, HERRIMAN, UT, 84067.0",
      "coordinates": "40.5225947, -112.0073267",
      "is_depot": false,
      "inspection_time": 30,
      "num_pumps": 2,
      "pumps_to_inspect": 1,
      "priority_score": 34,
      "reinspection": true,
      "complaint": false,
      "out_of_service": true,
      "priority_reason": "Scheduled reinspection: P#10, incorrect product identity labels for (85, 87, 89)",
      "last_visited": "2024-11-07",
      "days_since_inspection": 311,
      "out_of_service_pumps": 1,
      "out_of_service_details": "P#10 all grades OOS",
      "days_out_of_service": 1180,
      "travel_time": 267,
      "arrival_time": "12:57",
      "distance": 9.037106318257
    },
    {
      "id": "115544",
      "name": "HARMONS",
      "address": "1695 TRAVERSE PKWY",
      "city": "LEHI",
      "state": "UT",
      "zip": 84043.0,
      "county": "Utah",
      "full_address": "1695 TRAVERSE PKWY, LEHI, UT, 84043.0",
      "coordinates": "40.4343344, -111.8806022",
      "is_depot": false,
      "inspection_time": 30,
      "num_pumps": 2,
      "pumps_to_inspect": 2,
      "priority_score": 36,
      "reinspection": true,
      "complaint": false,
      "out_of_service": true,
      "priority_reason": "Scheduled reinspection: P#7 & P#8 gas filters not 10\u00b5",
      "last_visited": "2024-10-31",
      "days_since_inspection": 318,
      "out_of_service_pumps": 2,
      "out_of_service_details": "P#7 & #8 unable to authorize",
      "days_out_of_service": 683,
      "travel_time": 300,
      "arrival_time": "13:30",
      "distance": 1.634319960363226
    },
    {
      "id": "12236543",
      "name": "TOP STOP CONV STORE C-29",
      "address": "3501 N CENTER ST",
      "city": "LEHI",
      "state": "UT",
      "zip": 84043.0,
      "county": "Utah",
      "full_address": "3501 N CENTER ST, LEHI, UT, 84043.0",
      "coordinates": "40.431562, -111.849818",
      "is_depot": false,
      "inspection_time": 30,
      "num_pumps": 2,
      "pumps_to_inspect": 2,
      "priority_score": 33.83333333333333,
      "reinspection": true,
      "complaint": false,
      "out_of_service": true,
      "priority_reason": "Scheduled reinspection: P#5 gas hose deeply cut",
      "last_visited": "2025-01-22",
      "days_since_inspection": 235,
      "out_of_service_pumps": 2,
      "out_of_service_details": "P#3 and #4 OOS",
      "days_out_of_service": 590,
      "travel_time": 355,
      "arrival_time": "14:25",
      "distance": 11.459796618594028
    },
    {
      "id": "138059",
      "name": "7-ELEVEN #38508A",
      "address": "1120 W CENTER ST",
      "city": "OREM",
      "state": "UT",
      "zip": 84057.0,
      "county": "Utah",
      "full_address": "1120 W CENTER ST, OREM, UT, 84057.0",
      "coordinates": "40.2974889, -111.7216611",
      "is_depot": false,
      "inspection_time": 30,
      "num_pumps": 2,
      "pumps_to_inspect": 2,
      "priority_score": 36,
      "reinspection": true,
      "complaint": false,
      "out_of_service": true,
      "priority_reason": "Scheduled reinspection: P#4 gas hose leaks at upper break-away fitting",
      "last_visited": "2024-10-28",
      "days_since_inspection": 321,
      "out_of_service_pumps": 2,
      "out_of_service_details": "P#3 & P#9 out of service, all fuel grades",
      "days_out_of_service": 1186,
      "travel_time": 392,
      "arrival_time": "15:02",
      "distance": 3.3153414683843923
    },
    {
      "id": "60026",
      "name": "HARMONS",
      "address": "870 E 800 N",
      "city": "OREM",
      "state": "UT",
      "zip": 84097.0,
      "county": "Utah",
      "full_address": "870 E 800 N, OREM, UT, 84097.0",
      "coordinates": "40.3120175, -111.6618375",
      "is_depot": false,
      "inspection_time": 30,
      "num_pumps": 2,
      "pumps_to_inspect": 1,
      "priority_score": 34,
      "reinspection": true,
      "complaint": false,
      "out_of_service": true,
      "priority_reason": "Scheduled reinspection: P#1 (D) nozzle leaks",
      "last_visited": "2024-11-05",
      "days_since_inspection": 313,
      "out_of_service_pumps": 1,
      "out_of_service_details": "P#9 (85 & 91) OOS",
      "days_out_of_service": 1144,
      "travel_time": 463,
      "arrival_time": "16:13",
      "distance": 18.865926478147703
    },
    {
      "id": "54928",
      "name": "HOLIDAY OIL #7 - SINCLAIR",
      "address": "293 E 12300 S",
      "city": "DRAPER",
      "state": "UT",
      "zip": 84020.0,
      "county": "Salt Lake",
      "full_address": "293 E 12300 S, DRAPER, UT, 84020.0",
      "coordinates": "40.5273467, -111.8823115",
      "is_depot": false,
      "inspection_time": 30,
      "num_pumps": 2,
      "pumps_to_inspect": 1,
      "priority_score": 34,
      "reinspection": true,
      "complaint": false,
      "out_of_service": true,
      "priority_reason": "Scheduled reinspection: P#6 jagged sheet metal edge thigh-high needs removal",
      "last_visited": "2024-09-30",
      "days_since_inspection": 349,
      "out_of_service_pumps": 1,
      "out_of_service_details": "P#10 (D) broken selector switch",
      "days_out_of_service": 1157,
      "travel_time": 509,
      "arrival_time": "16:59",
      "distance": 7.369948032564918
    },
    {
      "id": "138366",
      "name": "JACKSON ENERGY #6795",
      "address": "7006 S HIGHLAND DR",
      "city": "COTTONWOOD HEIGHTS",
      "state": "UT",
      "zip": 84121.0,
      "county": "Salt Lake",
      "full_address": "7006 S HIGHLAND DR, COTTONWOOD HEIGHTS, UT, 84121.0",
      "coordinates": "40.6276254, -111.8340784",
      "is_depot": false,
      "inspection_time": 30,
      "num_pumps": 2,
      "pumps_to_inspect": 2,
      "priority_score": 43.7,
      "reinspection": true,
      "complaint": true,
      "out_of_service": true,
      "priority_reason": "Customer complaint",
      "last_visited": "2024-11-27",
      "days_since_inspection": 291,
      "out_of_service_pumps": 2,
      "out_of_service_details": "P# 3 & #4 OOS",
      "days_out_of_service": 1149
    }
  ]
}