{
  "timestamp": "20250915-212736",
  "generated_at": "2025-09-15 21:27:36",
  "route_plan": [
    {
      "id": "depot",
      "name": "My Home Base",
      "address": "5300 S 300 W, Murray, UT",
      "coordinates": "40.6542, -111.8955",
      "is_depot": true,
      "inspection_time": 0,
      "status": [],
      "travel_time": 8,
      "arrival_time": "08:08",
      "distance": 3.7128408349495916,
      "total_time": 480,
      "stops_count": 10,
      "total_pumps": 16
    },
    {
      "id": "138366",
      "name": "JACKSON ENERGY #6795",
      "address": "7006 S HIGHLAND DR",
      "city": "COTTONWOOD HEIGHTS",
      "state": "UT",
      "zip": 84121.0,
      "county": "Salt Lake",
      "full_address": "7006 S HIGHLAND DR, COTTONWOOD HEIGHTS, UT, 84121.0",
      "coordinates": "40.6276254, -111.8340784",
      "is_depot": false,
      "inspection_time": 30,
      "num_pumps": 2,
      "pumps_to_inspect": 2,
      "priority_score": 43.733333333333334,
      "reinspection": true,
      "complaint": true,
      "out_of_service": true,
      "priority_reason": "Customer complaint",
      "last_visited": "2024-11-27",
      "days_since_inspection": 292,
      "out_of_service_pumps": 2,
      "out_of_service_details": "P# 3 & #4 OOS",
      "days_out_of_service": 1149,
      "travel_time": 11,
      "arrival_time": "08:41",
      "distance": 1.5500808238070187
    },
    {
      "id": "12235959",
      "name": "REBEL #915",
      "address": "7746 UNION PARK AVE",
      "city": "SANDY",
      "state": "UT",
      "zip": 84047.0,
      "county": "Salt Lake",
      "full_address": "7746 UNION PARK AVE, SANDY, UT, 84047.0",
      "coordinates": "40.610847, -111.853682",
      "is_depot": false,
      "inspection_time": 30,
      "num_pumps": 2,
      "pumps_to_inspect": 3,
      "priority_score": 33.8,
      "reinspection": true,
      "complaint": false,
      "out_of_service": true,
      "priority_reason": "Scheduled reinspection: Diesel underground storage tank missing metal cover",
      "last_visited": "2025-03-25",
      "days_since_inspection": 174,
      "out_of_service_pumps": 3,
      "out_of_service_details": "P#2, #5, #8 OOS",
      "days_out_of_service": 527,
      "travel_time": 45,
      "arrival_time": "09:15",
      "distance": 2.136094535335335
    },
    {
      "id": "93727",
      "name": "PHILLIPS 66 - DAL SOGLIO",
      "address": "8370 S STATE ST",
      "city": "MIDVALE",
      "state": "UT",
      "zip": 84047.0,
      "county": "Salt Lake",
      "full_address": "8370 S STATE ST, MIDVALE, UT, 84047.0",
      "coordinates": "40.5992691, -111.8913523",
      "is_depot": false,
      "inspection_time": 30,
      "num_pumps": 2,
      "pumps_to_inspect": 1,
      "priority_score": 31.633333333333333,
      "reinspection": true,
      "complaint": false,
      "out_of_service": true,
      "priority_reason": "Scheduled reinspection: P#5 (85) meter creep-up. P#6, gas nozzle leaks.",
      "last_visited": "2025-01-29",
      "days_since_inspection": 229,
      "out_of_service_pumps": 1,
      "out_of_service_details": "P#6 all grades OOS",
      "days_out_of_service": 1059,
      "travel_time": 85,
      "arrival_time": "09:55",
      "distance": 4.985430688973236
    },
    {
      "id": "54928",
      "name": "HOLIDAY OIL #7 - SINCLAIR",
      "address": "293 E 12300 S",
      "city": "DRAPER",
      "state": "UT",
      "zip": 84020.0,
      "county": "Salt Lake",
      "full_address": "293 E 12300 S, DRAPER, UT, 84020.0",
      "coordinates": "40.5273467, -111.8823115",
      "is_depot": false,
      "inspection_time": 30,
      "num_pumps": 2,
      "pumps_to_inspect": 1,
      "priority_score": 34,
      "reinspection": true,
      "complaint": false,
      "out_of_service": true,
      "priority_reason": "Scheduled reinspection: P#6 jagged sheet metal edge thigh-high needs removal",
      "last_visited": "2024-09-30",
      "days_since_inspection": 350,
      "out_of_service_pumps": 1,
      "out_of_service_details": "P#10 (D) broken selector switch",
      "days_out_of_service": 1157,
      "travel_time": 129,
      "arrival_time": "10:39",
      "distance": 6.418431472123842
    },
    {
      "id": "115544",
      "name": "HARMONS",
      "address": "1695 TRAVERSE PKWY",
      "city": "LEHI",
      "state": "UT",
      "zip": 84043.0,
      "county": "Utah",
      "full_address": "1695 TRAVERSE PKWY, LEHI, UT, 84043.0",
      "coordinates": "40.4343344, -111.8806022",
      "is_depot": false,
      "inspection_time": 30,
      "num_pumps": 2,
      "pumps_to_inspect": 2,
      "priority_score": 36,
      "reinspection": true,
      "complaint": false,
      "out_of_service": true,
      "priority_reason": "Scheduled reinspection: P#7 & P#8 gas filters not 10\u00b5",
      "last_visited": "2024-10-31",
      "days_since_inspection": 319,
      "out_of_service_pumps": 2,
      "out_of_service_details": "P#7 & #8 unable to authorize",
      "days_out_of_service": 683,
      "travel_time": 178,
      "arrival_time": "11:28",
      "distance": 9.037106318255901
    },
    {
      "id": "78787",
      "name": "MAVERIK #352",
      "address": "4604 W 12600 S",
      "city": "HERRIMAN",
      "state": "UT",
      "zip": 84067.0,
      "county": "Salt Lake",
      "full_address": "4604 W 12600 S, HERRIMAN, UT, 84067.0",
      "coordinates": "40.5225947, -112.0073267",
      "is_depot": false,
      "inspection_time": 30,
      "num_pumps": 2,
      "pumps_to_inspect": 1,
      "priority_score": 34,
      "reinspection": true,
      "complaint": false,
      "out_of_service": true,
      "priority_reason": "Scheduled reinspection: P#10, incorrect product identity labels for (85, 87, 89)",
      "last_visited": "2024-11-07",
      "days_since_inspection": 312,
      "out_of_service_pumps": 1,
      "out_of_service_details": "P#10 all grades OOS",
      "days_out_of_service": 1180,
      "travel_time": 241,
      "arrival_time": "12:31",
      "distance": 15.438978175097752
    },
    {
      "id": "57992",
      "name": "7-11 #36342 A",
      "address": "975 N MAIN ST",
      "city": "TOOELE",
      "state": "UT",
      "zip": 84074.0,
      "county": "Tooele",
      "full_address": "975 N MAIN ST, TOOELE, UT, 84074.0",
      "coordinates": "40.550552, -112.298302",
      "is_depot": false,
      "inspection_time": 30,
      "num_pumps": 2,
      "pumps_to_inspect": 2,
      "priority_score": 36,
      "reinspection": true,
      "complaint": false,
      "out_of_service": true,
      "priority_reason": "Scheduled reinspection: P#7 gas nozzle auto-shutoff failure",
      "last_visited": "2024-11-04",
      "days_since_inspection": 315,
      "out_of_service_pumps": 2,
      "out_of_service_details": "P#3 & #4 OOS",
      "days_out_of_service": 1067,
      "travel_time": 271,
      "arrival_time": "13:01",
      "distance": 0.38406496906058984
    },
    {
      "id": "126571",
      "name": "WALMART FUEL",
      "address": "1251 N MAIN ST",
      "city": "TOOELE",
      "state": "UT",
      "zip": 84074.0,
      "county": "Tooele",
      "full_address": "1251 N MAIN ST, TOOELE, UT, 84074.0",
      "coordinates": "40.5560774, -112.2974208",
      "is_depot": false,
      "inspection_time": 30,
      "num_pumps": 2,
      "pumps_to_inspect": 1,
      "priority_score": 40.43333333333334,
      "reinspection": true,
      "complaint": true,
      "out_of_service": true,
      "priority_reason": "Customer complaint",
      "last_visited": "2024-11-04",
      "days_since_inspection": 315,
      "out_of_service_pumps": 1,
      "out_of_service_details": "P#3 (85 & 91) OOS",
      "days_out_of_service": 313,
      "travel_time": 350,
      "arrival_time": "14:20",
      "distance": 22.488766285378745
    },
    {
      "id": "57942",
      "name": "MAIN STREET MARKET #978",
      "address": "1881 W CALIFORNIA",
      "city": "SALT LAKE CITY",
      "state": "UT",
      "zip": 84106.0,
      "county": "Salt Lake",
      "full_address": "1881 W CALIFORNIA, SALT LAKE CITY, UT, 84106.0",
      "coordinates": "40.7399279, -111.9441021",
      "is_depot": false,
      "inspection_time": 30,
      "num_pumps": 2,
      "pumps_to_inspect": 2,
      "priority_score": 43.56666666666666,
      "reinspection": true,
      "complaint": true,
      "out_of_service": true,
      "priority_reason": "Customer complaint",
      "last_visited": "2024-12-02",
      "days_since_inspection": 287,
      "out_of_service_pumps": 2,
      "out_of_service_details": "P#3 (D), P#8 OOS",
      "days_out_of_service": 1145,
      "travel_time": 389,
      "arrival_time": "14:59",
      "distance": 4.510046336968542
    },
    {
      "id": "37737",
      "name": "PHILLIPS 66 - SUNBURST",
      "address": "1326 E 5600 S",
      "city": "SALT LAKE CITY",
      "state": "UT",
      "zip": 84117.0,
      "county": "Salt Lake",
      "full_address": "1326 E 5600 S, SALT LAKE CITY, UT, 84117.0",
      "coordinates": "40.7050864, -111.8714165",
      "is_depot": false,
      "inspection_time": 30,
      "num_pumps": 2,
      "pumps_to_inspect": 1,
      "priority_score": 41.333333333333336,
      "reinspection": true,
      "complaint": true,
      "out_of_service": true,
      "priority_reason": "Customer complaint",
      "last_visited": "2024-12-09",
      "days_since_inspection": 280,
      "out_of_service_pumps": 1,
      "out_of_service_details": "P#4 all grades OOS",
      "days_out_of_service": 1173
    }
  ]
}